City_ID,City,Country,Date,Lat,Lng,Max Temp,Humidity,Cloudiness,Wind Speed,Current Description
0,Takanabe,JP,2022-12-27 22:24:29,32.1333,131.5,44.49,66,83,3.4,broken clouds
1,Ushuaia,AR,2022-12-27 22:13:31,-54.8,-68.3,38.86,93,100,35.68,moderate rain
2,Tuktoyaktuk,CA,2022-12-27 22:17:55,69.4541,-133.0374,-27.4,68,20,3.44,few clouds
3,Yellowknife,CA,2022-12-27 22:20:51,62.456,-114.3525,-3.48,84,100,10.36,light snow
4,Butaritari,KI,2022-12-27 22:16:47,3.0707,172.7902,80.33,81,66,16.71,light rain
5,Port Alfred,ZA,2022-12-27 22:18:02,-33.5906,26.891,68.18,90,6,7.0,clear sky
6,Provideniya,RU,2022-12-27 22:15:38,64.3833,-173.3,8.71,78,40,22.37,scattered clouds
7,Brezovica Pri Ljubljani,SI,2022-12-27 22:25:11,46.0333,14.4,43.38,80,100,4.27,overcast clouds
8,Nikolskoye,RU,2022-12-27 22:16:49,59.7035,30.7861,28.29,95,100,7.05,overcast clouds
9,New Norfolk,AU,2022-12-27 22:25:11,-42.7826,147.0587,84.92,39,100,11.99,light rain
10,Jaru,BR,2022-12-27 22:25:11,-10.4389,-62.4664,79.0,85,86,3.6,overcast clouds
11,Bluff,NZ,2022-12-27 22:15:41,-46.6,168.3333,60.96,76,3,1.57,clear sky
12,Hede,CN,2022-12-27 22:25:12,33.7681,120.2517,32.85,64,82,8.43,broken clouds
13,Ilulissat,GL,2022-12-27 22:19:25,69.2167,-51.1,14.02,31,20,19.57,few clouds
14,Pacific Grove,US,2022-12-27 22:25:12,36.6177,-121.9166,57.65,90,100,11.01,overcast clouds
15,Teguise,ES,2022-12-27 22:25:13,29.0605,-13.564,66.42,60,0,13.8,clear sky
16,Saldanha,ZA,2022-12-27 22:25:13,-33.0117,17.9442,64.45,91,44,9.33,scattered clouds
17,Katobu,ID,2022-12-27 22:25:14,-4.9408,122.5276,74.68,92,100,5.41,overcast clouds
18,Puerto Ayora,EC,2022-12-27 22:19:13,-0.7393,-90.3518,76.96,92,65,1.99,broken clouds
19,Albany,US,2022-12-27 22:16:48,42.6001,-73.9662,29.03,63,57,5.61,broken clouds
20,Esperance,AU,2022-12-27 22:15:36,-33.8667,121.9,59.68,57,22,5.37,few clouds
21,Katsuura,JP,2022-12-27 22:18:00,35.1333,140.3,47.32,52,26,1.1,scattered clouds
22,Dikson,RU,2022-12-27 22:16:49,73.5069,80.5464,-21.06,98,55,7.31,broken clouds
23,Busselton,AU,2022-12-27 22:25:15,-33.65,115.3333,51.21,77,0,10.09,clear sky
24,Vila Do Maio,CV,2022-12-27 22:25:15,15.1333,-23.2167,72.39,60,100,16.24,overcast clouds
25,Carnarvon,AU,2022-12-27 22:25:15,-24.8667,113.6333,78.57,52,83,23.62,broken clouds
26,Padang,ID,2022-12-27 22:25:16,-0.9492,100.3543,75.92,83,100,2.77,overcast clouds
27,Punta Arenas,CL,2022-12-27 22:21:48,-53.15,-70.9167,50.11,57,20,32.21,few clouds
28,Bambanglipuro,ID,2022-12-27 22:25:16,-7.95,110.2833,76.87,87,100,4.21,overcast clouds
29,Hithadhoo,MV,2022-12-27 22:17:57,-0.6,73.0833,80.91,75,100,12.64,overcast clouds
30,Vorotynets,RU,2022-12-27 22:25:17,56.0603,45.8633,7.18,97,96,7.72,overcast clouds
31,Rikitea,PF,2022-12-27 22:25:17,-23.1203,-134.9692,78.13,73,7,10.29,clear sky
32,Sao Joao Da Barra,BR,2022-12-27 22:21:43,-21.6403,-41.0511,77.09,90,100,13.27,overcast clouds
33,Bambous Virieux,MU,2022-12-27 22:16:46,-20.3428,57.7575,79.05,73,40,10.36,scattered clouds
34,Khatanga,RU,2022-12-27 22:16:48,71.9667,102.5,-31.18,99,92,7.36,overcast clouds
35,Derzhavinsk,KZ,2022-12-27 22:25:18,51.1,66.3167,14.23,96,99,2.28,overcast clouds
36,Kahului,US,2022-12-27 22:20:24,20.8947,-156.47,83.97,63,20,14.97,few clouds
37,Kieta,PG,2022-12-27 22:25:19,-6.2167,155.6333,83.41,71,93,10.78,overcast clouds
38,Temirtau,KZ,2022-12-27 22:24:44,50.0544,72.9483,-1.84,90,18,5.79,few clouds
39,Matara,LK,2022-12-27 22:25:20,5.9485,80.5353,73.49,91,43,4.88,scattered clouds
40,College,US,2022-12-27 22:25:21,64.8569,-147.8028,2.8,74,75,9.22,light snow
41,Roald,NO,2022-12-27 22:25:22,62.5833,6.1333,33.94,86,75,8.05,light shower snow
42,Mataura,NZ,2022-12-27 22:16:50,-46.1927,168.8643,71.74,56,24,3.06,few clouds
43,Westport,US,2022-12-27 22:26:02,41.1415,-73.3579,33.78,56,100,6.91,overcast clouds
44,Cabo San Lucas,MX,2022-12-27 22:22:53,22.8909,-109.9124,81.61,46,0,5.75,clear sky
45,Pisco,PE,2022-12-27 22:18:08,-13.7,-76.2167,75.25,78,0,23.02,clear sky
46,Nioro,GM,2022-12-27 22:26:24,13.35,-15.75,72.46,59,100,6.71,overcast clouds
47,Atuona,PF,2022-12-27 22:15:18,-9.8,-139.0333,77.77,75,90,12.41,light rain
48,Hermanus,ZA,2022-12-27 22:26:25,-34.4187,19.2345,62.8,88,95,6.15,overcast clouds
49,Abomsa,ET,2022-12-27 22:26:25,9.9833,39.9833,64.24,84,53,4.88,broken clouds
50,Talnakh,RU,2022-12-27 22:26:26,69.4865,88.3972,0.46,97,100,5.21,overcast clouds
51,Sao Filipe,CV,2022-12-27 22:26:27,14.8961,-24.4956,71.37,61,100,10.74,overcast clouds
52,Bethel,US,2022-12-27 22:26:27,41.3712,-73.414,32.09,59,100,4.61,overcast clouds
53,Chuy,UY,2022-12-27 22:16:47,-33.6971,-53.4616,68.07,62,100,11.48,overcast clouds
54,Finschhafen,PG,2022-12-27 22:26:28,-6.6024,147.8681,82.85,79,100,10.92,overcast clouds
55,Atar,MR,2022-12-27 22:26:28,20.5169,-13.0499,65.1,25,51,1.19,broken clouds
56,Atikokan,CA,2022-12-27 22:26:28,48.7555,-91.6216,18.75,94,100,5.95,overcast clouds
57,Kawambwa,ZM,2022-12-27 22:26:29,-9.7915,29.0791,61.14,98,96,1.81,light rain
58,Kapaa,US,2022-12-27 22:26:29,22.0752,-159.319,81.12,72,0,9.22,clear sky
59,Paamiut,GL,2022-12-27 22:26:29,61.994,-49.6678,22.93,89,98,12.19,overcast clouds
60,Grindavik,IS,2022-12-27 22:19:18,63.8424,-22.4338,21.67,79,20,12.66,few clouds
61,Chokurdakh,RU,2022-12-27 22:24:21,70.6333,147.9167,-29.27,100,93,5.23,overcast clouds
62,Hilo,US,2022-12-27 22:13:22,19.7297,-155.09,88.29,71,0,9.22,clear sky
63,Arraial Do Cabo,BR,2022-12-27 22:26:30,-22.9661,-42.0278,80.46,74,40,14.97,scattered clouds
64,Monteagudo,BO,2022-12-27 22:26:30,-19.8167,-63.9833,68.4,94,84,4.25,broken clouds
65,Cape Town,ZA,2022-12-27 22:26:30,-33.9258,18.4232,68.11,72,0,9.22,clear sky
66,Thompson,CA,2022-12-27 22:15:33,55.7435,-97.8558,-11.04,77,75,5.75,broken clouds
67,Paita,PE,2022-12-27 22:17:55,-5.0892,-81.1144,72.75,75,89,14.88,overcast clouds
68,Ibra,OM,2022-12-27 22:26:31,22.6906,58.5334,66.24,83,60,1.39,broken clouds
69,North Branch,US,2022-12-27 22:26:31,45.5113,-92.9802,26.96,80,100,4.0,overcast clouds
70,Krasnyy Chikoy,RU,2022-12-27 22:26:31,50.3643,108.7512,-15.56,100,81,2.15,broken clouds
71,Saint-Philippe,RE,2022-12-27 22:19:11,-21.3585,55.7679,74.79,81,36,11.32,light rain
72,Port Elizabeth,ZA,2022-12-27 22:26:32,-33.918,25.5701,68.29,88,40,19.57,scattered clouds
73,Ginda,IN,2022-12-27 22:26:32,30.6945,78.4932,40.33,16,0,7.61,clear sky
74,East London,ZA,2022-12-27 22:16:52,-33.0153,27.9116,70.7,92,3,10.83,clear sky
75,Geraldton,AU,2022-12-27 22:26:32,-28.7667,114.6,59.41,82,0,9.22,clear sky
76,Nantucket,US,2022-12-27 22:22:39,41.2835,-70.0995,33.91,59,0,8.05,clear sky
77,Tiarei,PF,2022-12-27 22:26:33,-17.5333,-149.3333,86.02,72,23,12.93,few clouds
78,Bredasdorp,ZA,2022-12-27 22:26:33,-34.5322,20.0403,67.82,76,99,4.97,overcast clouds
79,Sorong,ID,2022-12-27 22:26:33,-0.8833,131.25,80.44,75,100,8.23,overcast clouds
80,Isangel,VU,2022-12-27 22:19:17,-19.55,169.2667,87.91,74,75,6.91,broken clouds
81,Yulara,AU,2022-12-27 22:26:33,-25.2406,130.9889,84.49,48,10,10.67,clear sky
82,Airai,TL,2022-12-27 22:16:30,-8.9266,125.4092,61.3,92,100,2.17,overcast clouds
83,Atbasar,KZ,2022-12-27 22:26:34,51.8,68.3333,6.01,96,78,3.15,broken clouds
84,Flin Flon,CA,2022-12-27 22:26:34,54.7682,-101.865,1.24,66,75,10.36,broken clouds
85,Hobart,AU,2022-12-27 22:18:07,-42.8794,147.3294,85.26,45,0,26.46,light rain
86,Hasaki,JP,2022-12-27 22:26:34,35.7333,140.8333,32.4,52,36,3.2,scattered clouds
87,Faanui,PF,2022-12-27 22:20:36,-16.4833,-151.75,81.21,72,14,13.58,few clouds
88,North Bend,US,2022-12-27 22:25:29,43.4065,-124.2243,51.71,82,100,18.41,mist
89,Yar-Sale,RU,2022-12-27 22:27:35,66.8333,70.8333,-11.36,97,41,8.68,scattered clouds
90,Jamestown,US,2022-12-27 22:24:04,42.097,-79.2353,24.55,88,100,8.05,overcast clouds
91,Triunfo,BR,2022-12-27 22:24:54,-29.9433,-51.7181,70.47,60,97,10.38,light rain
92,Pevek,RU,2022-12-27 22:27:35,69.7008,170.3133,-9.04,99,100,2.93,overcast clouds
93,Klyuchi,RU,2022-12-27 22:27:36,52.2667,79.1667,4.95,88,93,7.76,overcast clouds
94,Mar Del Plata,AR,2022-12-27 22:23:12,-38.0023,-57.5575,77.02,69,0,14.97,clear sky
95,San Patricio,US,2022-12-27 22:27:36,28.017,-97.5169,63.32,38,0,7.96,clear sky
96,Souillac,MU,2022-12-27 22:27:36,-20.5167,57.5167,79.18,73,40,10.36,scattered clouds
97,Esso,RU,2022-12-27 22:27:37,55.9333,158.7,5.43,69,4,6.93,clear sky
98,Hay River,CA,2022-12-27 22:27:37,60.8156,-115.7999,-0.42,78,100,6.91,light snow
99,Humberto De Campos,BR,2022-12-27 22:27:37,-2.5983,-43.4611,79.05,80,93,7.7,overcast clouds
100,Vila Franca Do Campo,PT,2022-12-27 22:27:37,37.7167,-25.4333,61.21,83,99,12.15,overcast clouds
101,Dzilam Gonzalez,MX,2022-12-27 22:27:38,21.2833,-88.9333,75.7,59,4,7.47,clear sky
102,Srandakan,ID,2022-12-27 22:27:38,-7.9386,110.2506,77.13,87,100,4.54,overcast clouds
103,Tiznit,MA,2022-12-27 22:27:38,29.5833,-9.5,61.61,33,9,12.21,clear sky
104,Banda Aceh,ID,2022-12-27 22:27:39,5.5577,95.3222,77.88,85,95,9.48,overcast clouds
105,Leningradskiy,RU,2022-12-27 22:27:39,69.3833,178.4167,-20.99,99,95,5.08,overcast clouds
106,Pusad,IN,2022-12-27 22:27:39,19.9,77.5833,70.99,57,8,4.88,clear sky
107,Eyemouth,GB,2022-12-27 22:27:40,55.8713,-2.0901,41.23,86,78,13.04,broken clouds
108,Seminole,US,2022-12-27 22:24:10,28.7086,-81.2081,61.41,61,0,8.05,clear sky
109,Asau,RO,2022-12-27 22:27:40,46.4333,26.4,36.52,87,32,2.19,scattered clouds
110,Goderich,CA,2022-12-27 22:27:40,43.7501,-81.7165,28.9,74,100,14.97,overcast clouds
111,Doctor Juan Leon Mallorquin,PY,2022-12-27 22:27:41,-25.4,-55.2667,76.73,75,79,10.38,broken clouds
112,Qaanaaq,GL,2022-12-27 22:27:41,77.484,-69.3632,-10.79,98,100,2.04,overcast clouds
113,Lompoc,US,2022-12-27 22:15:25,34.6391,-120.4579,57.92,96,100,5.75,moderate rain
114,Camacha,PT,2022-12-27 22:27:41,33.0833,-16.3333,62.02,82,20,13.8,few clouds
115,Port Hardy,CA,2022-12-27 22:27:42,50.6996,-127.4199,44.78,93,100,10.36,light rain
116,Georgetown,MY,2022-12-27 22:23:55,5.4112,100.3354,78.73,82,20,0.0,few clouds
117,Vaini,TO,2022-12-27 22:27:42,-21.2,-175.2,78.96,94,75,5.75,light rain
118,Pemangkat,ID,2022-12-27 22:27:42,1.1667,108.9667,77.23,86,100,10.42,overcast clouds
119,Codrington,AU,2022-12-27 22:27:43,-38.2667,141.9667,60.03,89,100,14.5,overcast clouds
120,Kattivakkam,IN,2022-12-27 22:27:43,13.2167,80.3167,78.89,84,9,2.93,clear sky
121,Half Moon Bay,US,2022-12-27 22:27:43,37.4636,-122.4286,58.91,93,100,10.36,mist
122,Barrow,US,2022-12-27 22:18:10,71.2906,-156.7887,-5.78,77,0,18.41,clear sky
123,Kurtamysh,RU,2022-12-27 22:27:44,54.9103,64.4319,-0.04,98,29,6.89,scattered clouds
124,Nikolayevka,RU,2022-12-27 22:27:44,53.1257,47.2041,12.22,100,100,3.65,overcast clouds
125,Palaikastron,GR,2022-12-27 22:27:44,35.2,26.25,58.28,69,1,2.33,clear sky
126,Cherskiy,RU,2022-12-27 22:17:55,68.75,161.3,-8.77,99,100,4.38,light snow
127,Tari,NG,2022-12-27 22:27:44,12.4086,4.4914,69.89,21,1,11.79,clear sky
128,Hami,CN,2022-12-27 22:27:45,42.8,93.45,17.11,48,0,1.99,clear sky
129,Tasiilaq,GL,2022-12-27 22:19:15,65.6145,-37.6368,1.56,50,0,4.45,clear sky
130,Muisne,EC,2022-12-27 22:28:45,0.6,-80.0333,77.38,80,42,8.21,scattered clouds
131,Whitehorse,CA,2022-12-27 22:26:50,60.7161,-135.0538,18.01,85,75,20.71,broken clouds
132,Olafsvik,IS,2022-12-27 22:28:45,64.8945,-23.7142,25.5,65,27,20.49,scattered clouds
133,Mozhga,RU,2022-12-27 22:28:46,56.4447,52.2276,-7.44,100,100,3.42,overcast clouds
134,Jiwani,PK,2022-12-27 22:28:46,25.05,61.7417,73.27,75,98,4.72,light rain
135,Taltal,CL,2022-12-27 22:28:46,-25.4,-70.4833,69.73,69,18,5.91,few clouds
136,Santa Cruz Del Sur,CU,2022-12-27 22:28:47,20.7147,-77.9956,78.04,73,27,6.49,heavy intensity rain
137,Dedovichi,RU,2022-12-27 22:28:47,57.5517,29.9502,31.78,92,100,5.37,overcast clouds
138,Jalu,LY,2022-12-27 22:28:47,29.0331,21.5482,55.76,59,0,1.86,clear sky
139,Kachiry,KZ,2022-12-27 22:28:47,53.0675,76.1036,0.7,98,88,4.65,overcast clouds
140,Nanortalik,GL,2022-12-27 22:28:48,60.1432,-45.2371,24.4,85,99,7.96,overcast clouds
141,Shepsi,RU,2022-12-27 22:28:48,44.0361,39.1489,50.54,84,100,24.14,overcast clouds
142,Emerald,AU,2022-12-27 22:19:12,-23.5333,148.1667,74.34,56,0,10.47,clear sky
143,Nueve De Julio,AR,2022-12-27 22:28:48,-35.4444,-60.8831,93.9,13,11,8.14,few clouds
144,Lebu,CL,2022-12-27 22:17:17,-37.6167,-73.65,58.08,69,98,24.11,overcast clouds
145,Vila Velha,BR,2022-12-27 22:28:49,-20.3297,-40.2925,76.95,83,40,12.66,scattered clouds
146,Castro,BR,2022-12-27 22:19:27,-24.7911,-50.0119,67.1,88,21,4.56,few clouds
147,Konevo,RU,2022-12-27 22:28:49,62.1215,39.3192,13.53,93,100,9.42,overcast clouds
148,Stepnogorsk,KZ,2022-12-27 22:28:49,52.3544,71.8869,6.1,91,63,8.43,broken clouds
149,Praia Da Vitoria,PT,2022-12-27 22:28:50,38.7333,-27.0667,61.05,94,75,10.6,light rain
150,Mogadishu,SO,2022-12-27 22:28:50,2.0371,45.3438,78.37,76,64,15.12,broken clouds
151,Palmas Bellas,PA,2022-12-27 22:28:50,9.2319,-80.0867,80.19,76,93,8.16,overcast clouds
152,Watertown,US,2022-12-27 22:28:50,42.3709,-71.1828,32.34,56,0,7.0,clear sky
153,Avarua,CK,2022-12-27 22:28:51,-21.2078,-159.775,84.25,74,20,6.91,few clouds
154,Gimli,CA,2022-12-27 22:28:51,50.6336,-96.9907,12.22,85,100,9.22,overcast clouds
155,Tura,IN,2022-12-27 22:28:51,25.5198,90.2201,53.24,54,0,2.84,clear sky
156,Tezu,IN,2022-12-27 22:28:52,27.9167,96.1667,52.79,58,34,4.09,scattered clouds
157,Manavalakurichi,IN,2022-12-27 22:28:52,8.1333,77.3,76.62,80,16,9.64,few clouds
158,Luderitz,NA,2022-12-27 22:28:52,-26.6481,15.1594,63.66,73,0,16.42,clear sky
159,Korla,CN,2022-12-27 22:28:52,41.7597,86.1469,13.12,66,7,1.59,clear sky
160,Mahebourg,MU,2022-12-27 22:28:53,-20.4081,57.7,79.09,73,40,10.36,scattered clouds
161,Nome,US,2022-12-27 22:28:53,64.5011,-165.4064,6.87,72,100,6.91,overcast clouds
162,Fort Nelson,CA,2022-12-27 22:28:53,58.8053,-122.7002,-8.05,85,100,0.0,light snow
163,Poum,NC,2022-12-27 22:28:54,-20.2333,164.0167,79.38,84,100,19.51,light rain
164,Baghdad,IQ,2022-12-27 22:28:44,33.3406,44.4009,49.91,100,45,6.91,scattered clouds
165,Mbamba,NG,2022-12-27 22:28:54,9.9833,13.1,68.16,26,1,5.75,clear sky
166,Alofi,NU,2022-12-27 22:28:54,-19.0595,-169.9187,84.09,79,77,9.22,broken clouds
167,Gizo,SB,2022-12-27 22:28:54,-8.103,156.8419,83.79,72,92,17.72,overcast clouds
168,Tubarao,BR,2022-12-27 22:28:55,-28.4667,-49.0069,68.86,96,100,1.86,overcast clouds
169,Mount Gambier,AU,2022-12-27 22:28:55,-37.8333,140.7667,60.35,72,89,11.97,overcast clouds
170,Moose Factory,CA,2022-12-27 22:28:55,51.2585,-80.6094,6.8,72,100,9.22,overcast clouds
171,Cidreira,BR,2022-12-27 22:28:56,-30.1811,-50.2056,70.12,68,92,6.26,moderate rain
172,Keti Bandar,PK,2022-12-27 22:28:56,24.1447,67.4497,68.77,24,0,8.25,clear sky
173,Naryan-Mar,RU,2022-12-27 22:28:56,67.6713,53.087,13.42,91,100,10.54,overcast clouds
174,Victoria,HK,2022-12-27 22:26:43,22.2855,114.1577,60.33,80,29,8.01,scattered clouds
175,Rio Gallegos,AR,2022-12-27 22:27:30,-51.6226,-69.2181,53.65,32,40,33.38,scattered clouds
176,Corbelia,BR,2022-12-27 22:28:57,-24.7989,-53.3067,78.15,74,47,3.02,scattered clouds
177,Husavik,IS,2022-12-27 22:29:57,66.0449,-17.3389,19.54,93,100,3.65,light snow
178,Ascona,CH,2022-12-27 22:29:57,46.1545,8.7733,48.29,94,0,2.3,clear sky
179,Mattru,SL,2022-12-27 22:29:58,7.6244,-11.8332,74.82,84,40,2.44,scattered clouds
180,Bela,IN,2022-12-27 22:29:58,25.9333,81.9833,50.7,57,0,8.23,clear sky
181,Broome,US,2022-12-27 22:29:58,42.2506,-75.833,25.7,80,100,1.99,overcast clouds
182,Jaleswar,NP,2022-12-27 22:29:59,26.6471,85.8008,51.48,64,0,3.22,clear sky
183,Saint George,US,2022-12-27 22:26:01,37.1041,-113.5841,55.44,50,100,4.61,overcast clouds
184,Pichayevo,RU,2022-12-27 22:29:59,53.2363,42.2032,27.12,93,100,15.95,light snow
185,Sao Felix Do Xingu,BR,2022-12-27 22:29:59,-6.6447,-51.995,72.81,99,98,2.28,overcast clouds
186,Lerwick,GB,2022-12-27 22:29:59,60.1545,-1.1494,41.0,68,100,25.01,overcast clouds
187,Coquimbo,CL,2022-12-27 22:30:00,-29.9533,-71.3436,67.73,72,0,11.5,clear sky
188,Taoudenni,ML,2022-12-27 22:30:00,22.6783,-3.9836,70.0,22,3,12.12,clear sky
189,Robertsport,LR,2022-12-27 22:30:00,6.7533,-11.3686,80.53,78,8,6.44,clear sky
190,Kloulklubed,PW,2022-12-27 22:30:01,7.0419,134.2556,75.7,75,75,6.24,broken clouds
191,Shetpe,KZ,2022-12-27 22:30:01,44.1667,52.1167,28.6,76,61,1.66,broken clouds
192,Juneau,US,2022-12-27 22:30:01,58.3019,-134.4197,36.21,100,100,3.44,fog
193,Port Lincoln,AU,2022-12-27 22:30:02,-34.7333,135.8667,62.26,54,16,18.03,few clouds
194,Salinas,US,2022-12-27 22:30:03,36.6777,-121.6555,58.62,83,100,12.66,overcast clouds
195,Deputatskiy,RU,2022-12-27 22:30:05,69.3,139.9,-25.76,100,38,5.19,scattered clouds
196,Weihe,CN,2022-12-27 22:30:05,32.9952,105.3247,26.96,39,90,2.13,overcast clouds
197,Seguela,CI,2022-12-27 22:30:06,7.9611,-6.6731,75.97,31,9,2.06,clear sky
198,Owando,CG,2022-12-27 22:30:06,-0.4819,15.8999,74.43,64,96,2.48,overcast clouds
199,Guilin,CN,2022-12-27 22:30:08,25.2819,110.2864,46.51,69,100,10.31,overcast clouds
200,Itarema,BR,2022-12-27 22:30:10,-2.9248,-39.9167,80.17,76,98,14.29,overcast clouds
201,Vostok,RU,2022-12-27 22:30:10,46.4856,135.8833,-0.38,98,100,3.58,overcast clouds
202,Raga,SS,2022-12-27 22:30:10,8.4596,25.678,65.35,27,8,4.23,clear sky
203,Torbay,CA,2022-12-27 22:30:11,47.6666,-52.7314,33.58,89,75,12.66,broken clouds
204,Kasungu,MW,2022-12-27 22:30:11,-13.0333,33.4833,65.08,97,100,4.43,light rain
205,Sorland,NO,2022-12-27 22:30:12,67.667,12.6934,37.26,98,100,11.25,light rain
206,Marrakesh,MA,2022-12-27 22:26:16,31.6315,-8.0083,51.87,54,0,5.75,clear sky
207,Kodiak,US,2022-12-27 22:30:12,57.79,-152.4072,38.71,60,75,9.22,broken clouds
208,Tomatlan,MX,2022-12-27 22:30:13,19.9333,-105.25,87.85,28,3,7.63,clear sky
209,Dabat,ET,2022-12-27 22:30:13,12.9842,37.765,49.87,53,7,4.16,clear sky
210,Nyakahanga,TZ,2022-12-27 22:30:14,-1.6033,31.1414,58.01,94,100,0.56,overcast clouds
211,Natal,BR,2022-12-27 22:16:19,-5.795,-35.2094,81.25,69,20,14.97,few clouds
212,Tuatapere,NZ,2022-12-27 22:30:15,-46.1333,167.6833,72.72,55,1,2.82,clear sky
213,Ribeira Grande,PT,2022-12-27 22:30:15,38.5167,-28.7,61.77,95,100,15.99,heavy intensity rain
214,Tautira,PF,2022-12-27 22:30:16,-17.7333,-149.15,80.49,70,26,11.27,scattered clouds
215,Saint Charles,US,2022-12-27 22:25:46,38.7667,-90.7335,35.91,54,0,9.22,clear sky
216,Altoona,US,2022-12-27 22:26:41,40.5187,-78.3947,30.22,84,100,2.39,overcast clouds
217,Mana,GF,2022-12-27 22:30:18,5.6592,-53.7767,76.48,86,50,9.8,scattered clouds
218,Sakaraha,MG,2022-12-27 22:30:19,-22.9,44.5333,71.94,87,85,0.54,overcast clouds
219,Gweta,BW,2022-12-27 22:30:19,-20.1833,25.2333,83.21,33,25,15.32,scattered clouds
220,Kaitangata,NZ,2022-12-27 22:30:20,-46.2817,169.8464,69.15,61,16,5.39,few clouds
221,Kisumu,KE,2022-12-27 22:30:21,-0.1022,34.7617,66.33,90,100,6.22,light rain
222,Seydi,TM,2022-12-27 22:30:21,39.4816,62.9137,38.75,84,13,5.23,few clouds
223,Haines Junction,CA,2022-12-27 22:20:36,60.7522,-137.5108,28.18,95,100,2.01,overcast clouds
224,Lorengau,PG,2022-12-27 22:31:23,-2.0226,147.2712,83.37,71,79,8.21,broken clouds
225,Samarai,PG,2022-12-27 22:31:24,-10.6167,150.6667,78.76,88,100,9.64,heavy intensity rain
226,Vanimo,PG,2022-12-27 22:31:24,-2.6741,141.3028,78.35,90,100,9.28,overcast clouds
227,Porto Novo,BJ,2022-12-27 22:31:25,6.4965,2.6036,80.42,66,36,1.19,scattered clouds
228,Barra Dos Coqueiros,BR,2022-12-27 22:26:34,-10.9089,-37.0386,80.62,78,20,9.22,few clouds
229,General Roca,AR,2022-12-27 22:31:25,-39.0333,-67.5833,85.62,10,84,10.29,broken clouds
230,Maloy,NO,2022-12-27 22:31:25,61.9353,5.1136,33.73,50,62,11.7,broken clouds
231,Kenai,US,2022-12-27 22:31:26,60.5544,-151.2583,31.08,94,100,0.0,light snow
232,Havre-Saint-Pierre,CA,2022-12-27 22:31:26,50.2334,-63.5986,14.0,73,100,17.25,overcast clouds
233,Ayan,RU,2022-12-27 22:31:26,56.45,138.1667,-4.58,77,99,10.96,overcast clouds
234,Marienburg,PL,2022-12-27 22:27:55,54.0359,19.0266,37.85,70,44,14.79,scattered clouds
235,Namatanai,PG,2022-12-27 22:31:27,-3.6667,152.4333,84.0,61,82,5.93,broken clouds
236,La Ronge,CA,2022-12-27 22:31:27,55.1001,-105.2842,3.45,78,100,10.36,overcast clouds
237,Cayenne,GF,2022-12-27 22:26:50,4.9333,-52.3333,75.24,94,75,8.05,broken clouds
238,Marsaxlokk,MT,2022-12-27 22:31:28,35.8419,14.5431,61.41,67,0,12.66,clear sky
239,Chepareria,KE,2022-12-27 22:31:28,1.3077,35.2039,62.2,85,100,2.17,light rain
240,Huarmey,PE,2022-12-27 22:31:28,-10.0681,-78.1522,71.53,79,92,10.22,overcast clouds
241,Mucurapo,TT,2022-12-27 22:31:29,10.6667,-61.5333,80.65,83,8,9.48,clear sky
242,Kismayo,SO,2022-12-27 22:31:29,-0.3582,42.5454,77.31,81,65,11.7,broken clouds
243,Broken Hill,AU,2022-12-27 22:31:29,-31.95,141.4333,88.95,20,16,25.46,few clouds
244,Mizdah,LY,2022-12-27 22:31:30,31.4451,12.9801,54.9,48,0,2.68,clear sky
245,Sioux Lookout,CA,2022-12-27 22:30:37,50.1001,-91.917,12.27,85,100,3.44,light snow
246,Saint-Augustin,CA,2022-12-27 22:31:30,51.226,-58.6502,17.22,81,100,9.15,overcast clouds
247,Huambo,AO,2022-12-27 22:31:30,-12.7761,15.7392,61.32,92,100,3.53,overcast clouds
248,Lewistown,US,2022-12-27 22:31:31,40.5992,-77.5714,31.87,89,100,0.0,light intensity drizzle
249,Ambon,ID,2022-12-27 22:31:31,-3.6954,128.1814,77.23,15,40,2.3,light rain
250,Kidal,ML,2022-12-27 22:31:31,18.4411,1.4078,66.94,26,96,10.94,overcast clouds
251,Ouahigouya,BF,2022-12-27 22:31:32,13.5828,-2.4216,70.86,20,87,10.51,overcast clouds
252,Sibolga,ID,2022-12-27 22:31:32,1.7427,98.7792,75.52,89,98,2.42,overcast clouds
253,Omsukchan,RU,2022-12-27 22:31:33,62.5333,155.8,-20.45,97,100,5.73,overcast clouds
254,Yaring,TH,2022-12-27 22:31:33,6.8662,101.3689,75.4,80,97,6.38,overcast clouds
255,Waipawa,NZ,2022-12-27 22:31:33,-41.4122,175.5153,59.41,85,87,4.34,overcast clouds
256,Seoul,KR,2022-12-27 22:26:58,37.5683,126.9778,28.0,66,40,8.05,mist
257,Necochea,AR,2022-12-27 22:30:08,-38.5473,-58.7368,62.98,88,64,19.46,light rain
258,Shingu,JP,2022-12-27 22:31:34,33.7333,135.9833,41.47,64,5,4.65,clear sky
259,Ulladulla,AU,2022-12-27 22:31:34,-35.35,150.4667,78.49,46,0,10.74,clear sky
260,Vardo,NO,2022-12-27 22:31:34,70.3705,31.1107,17.58,86,75,31.07,broken clouds
261,Soto La Marina,MX,2022-12-27 22:31:35,23.7667,-98.2167,66.42,49,0,9.53,clear sky
262,Qaqortoq,GL,2022-12-27 22:31:35,60.7167,-46.0333,20.71,92,100,6.98,overcast clouds
263,Inhambane,MZ,2022-12-27 22:31:35,-23.865,35.3833,76.12,79,48,6.73,scattered clouds
264,Zarinsk,RU,2022-12-27 22:31:36,53.7074,84.9493,0.7,95,100,3.22,overcast clouds
265,Yagodnoye,RU,2022-12-27 22:31:36,62.55,149.6667,-28.61,99,77,5.17,broken clouds
266,Yaounde,CM,2022-12-27 22:31:36,3.8667,11.5167,68.29,47,10,1.9,clear sky
267,Kropotkin,RU,2022-12-27 22:31:37,45.4375,40.5756,42.76,83,100,6.91,overcast clouds
268,Kavaratti,IN,2022-12-27 22:31:37,10.5669,72.642,80.38,79,22,10.2,few clouds
269,San Angelo,US,2022-12-27 22:27:06,31.4638,-100.437,62.82,27,0,19.57,clear sky
270,Arlit,NE,2022-12-27 22:31:37,18.7369,7.3853,65.88,24,90,6.6,overcast clouds
271,Ponta Do Sol,PT,2022-12-27 22:32:38,32.6667,-17.1,70.43,22,4,7.09,clear sky
272,Te Anau,NZ,2022-12-27 22:32:38,-45.4167,167.7167,76.17,45,10,2.73,clear sky
273,Yaan,NG,2022-12-27 22:32:38,7.3833,8.5667,79.75,22,10,10.18,clear sky
274,Zaranj,AF,2022-12-27 22:32:39,30.9667,61.8833,52.79,51,100,6.67,overcast clouds
275,La Libertad,EC,2022-12-27 22:32:39,-2.2333,-80.9,80.26,74,0,10.36,clear sky
276,Lazaro Cardenas,MX,2022-12-27 22:32:39,17.9583,-102.2,81.18,63,56,5.82,broken clouds
277,The Valley,AI,2022-12-27 22:32:39,18.217,-63.0578,78.66,88,40,12.66,scattered clouds
278,Bafq,IR,2022-12-27 22:32:40,31.6128,55.4107,47.01,52,92,1.72,overcast clouds
279,Roseau,DM,2022-12-27 22:32:40,15.3017,-61.3881,73.42,78,12,15.5,few clouds
280,Longyearbyen,SJ,2022-12-27 22:32:40,78.2186,15.6401,31.84,80,75,21.85,light snow
281,Kavieng,PG,2022-12-27 22:32:41,-2.5744,150.7967,84.07,66,53,7.02,broken clouds
282,Bengkulu,ID,2022-12-27 22:32:41,-3.8004,102.2655,75.31,87,100,5.35,overcast clouds
283,Arua,UG,2022-12-27 22:32:41,3.0201,30.9111,65.3,41,100,3.0,overcast clouds
284,Viedma,AR,2022-12-27 22:30:36,-40.8135,-62.9967,66.34,31,69,14.47,broken clouds
285,Hervey Bay,AU,2022-12-27 22:28:07,-25.2986,152.8535,74.5,67,17,16.58,few clouds
286,Sawakin,SD,2022-12-27 22:32:42,19.1059,37.3321,72.34,57,31,15.05,scattered clouds
287,Ixtapa,MX,2022-12-27 22:32:42,20.7,-105.2,78.22,69,0,9.22,clear sky
288,Tiksi,RU,2022-12-27 22:32:42,71.6872,128.8694,-18.85,100,94,4.94,overcast clouds
289,Upernavik,GL,2022-12-27 22:32:43,72.7868,-56.1549,1.58,71,100,5.88,overcast clouds
290,Baykit,RU,2022-12-27 22:32:18,61.67,96.37,-8.72,100,100,1.05,overcast clouds
291,Coihaique,CL,2022-12-27 22:32:43,-45.5752,-72.0662,57.81,50,75,8.05,broken clouds
292,Kaabong,UG,2022-12-27 22:32:43,3.4836,34.1492,66.87,68,78,8.12,broken clouds
293,Eureka,US,2022-12-27 22:30:21,40.8021,-124.1637,52.41,88,95,8.01,overcast clouds
294,Osoyoos,CA,2022-12-27 22:32:43,49.0331,-119.4524,39.96,93,100,4.61,overcast clouds
295,Danilovka,RU,2022-12-27 22:32:44,50.3557,44.1168,26.28,74,100,12.08,overcast clouds
296,Marica,BR,2022-12-27 22:32:44,-22.9194,-42.8186,78.75,86,97,2.91,overcast clouds
297,Shaowu,CN,2022-12-27 22:32:45,27.3409,117.4831,42.62,72,44,2.59,scattered clouds
298,Davila,PH,2022-12-27 22:32:45,18.4726,120.5763,69.78,78,75,22.3,broken clouds
299,Bilibino,RU,2022-12-27 22:32:45,68.0546,166.4372,-23.4,99,100,0.92,overcast clouds
300,Plover,US,2022-12-27 22:32:45,44.4564,-89.544,20.08,57,0,11.99,clear sky
301,Monrovia,LR,2022-12-27 22:32:46,6.3005,-10.7969,79.27,80,7,5.53,clear sky
302,Severo-Kurilsk,RU,2022-12-27 22:32:46,50.6789,156.125,32.14,80,69,22.88,broken clouds
303,Rohatyn,UA,2022-12-27 22:32:46,49.409,24.6093,34.39,83,20,16.84,few clouds
304,Kruisfontein,ZA,2022-12-27 22:32:47,-34.0033,24.7314,65.88,94,0,9.08,clear sky
305,Xianyang,CN,2022-12-27 22:32:47,34.3378,108.7026,24.04,68,0,6.71,clear sky
306,Touros,BR,2022-12-27 22:32:47,-5.1989,-35.4608,79.16,78,68,13.4,broken clouds
307,Khatima,IN,2022-12-27 22:32:48,28.9167,79.9667,48.65,53,2,3.71,clear sky
308,Henties Bay,NA,2022-12-27 22:32:48,-22.116,14.2845,61.79,92,0,5.12,clear sky
309,Coahuayana,MX,2022-12-27 22:32:48,18.7333,-103.6833,82.2,51,65,4.5,broken clouds
310,Saskylakh,RU,2022-12-27 22:32:48,71.9167,114.0833,-40.27,100,88,4.12,overcast clouds
311,Nuqui,CO,2022-12-27 22:32:49,5.7125,-77.2708,76.82,88,49,6.91,light rain
312,Mukhen,RU,2022-12-27 22:32:49,48.1,136.1,10.33,95,100,3.0,overcast clouds
313,Baijiantan,CN,2022-12-27 22:32:49,45.6333,85.1833,-1.25,96,38,0.76,scattered clouds
314,Poso,ID,2022-12-27 22:32:50,-1.3959,120.7524,78.91,73,100,2.24,light rain
315,Harer,ET,2022-12-27 22:32:50,9.3094,42.1258,58.05,82,79,6.31,broken clouds
316,Narasannapeta,IN,2022-12-27 22:32:50,18.4167,84.05,71.82,91,93,4.88,overcast clouds
317,Kawalu,ID,2022-12-27 22:32:50,-7.3817,108.2082,72.07,92,97,1.72,overcast clouds
318,Saint-Georges,GD,2022-12-27 22:28:15,12.0564,-61.7485,78.48,78,20,11.5,few clouds
319,Yarada,IN,2022-12-27 22:32:51,17.65,83.2667,75.58,86,97,6.69,overcast clouds
320,Amarante Do Maranhao,BR,2022-12-27 22:33:51,-5.5667,-46.7422,72.19,98,95,3.44,overcast clouds
321,Grand Gaube,MU,2022-12-27 22:33:51,-20.0064,57.6608,79.2,66,1,8.01,clear sky
322,La Romana,DO,2022-12-27 22:29:11,18.4273,-68.9728,79.16,83,40,4.61,scattered clouds
323,Zeya,RU,2022-12-27 22:33:12,53.75,127.2667,-9.2,91,82,4.97,broken clouds
324,Dosso,NE,2022-12-27 22:33:52,13.049,3.1937,69.06,20,2,11.07,clear sky
325,Ajuchitlan,MX,2022-12-27 22:33:52,20.7167,-100.0167,65.59,33,2,7.61,clear sky
326,Los Angeles,US,2022-12-27 22:30:56,34.0522,-118.2437,64.35,79,100,3.44,overcast clouds
327,Pangai,TO,2022-12-27 22:33:52,-19.8,-174.35,84.31,65,20,5.75,few clouds
328,Shakiso,ET,2022-12-27 22:33:53,5.75,38.9167,61.9,68,97,2.19,overcast clouds
329,Saint-Pierre,RE,2022-12-27 22:33:53,-21.3393,55.4781,77.92,73,0,5.75,clear sky
330,Mpika,ZM,2022-12-27 22:33:53,-11.8343,31.4529,61.86,98,98,3.96,light rain
331,Blythe,US,2022-12-27 22:33:54,33.6103,-114.5964,75.04,28,0,16.11,clear sky
332,San Juan,AR,2022-12-27 22:30:56,-31.5375,-68.5364,88.03,18,23,12.5,few clouds
333,Meulaboh,ID,2022-12-27 22:33:54,4.1363,96.1285,75.0,90,87,3.36,overcast clouds
334,Kjollefjord,NO,2022-12-27 22:32:35,70.9457,27.3465,23.05,73,78,46.04,broken clouds
335,Shalinskoye,RU,2022-12-27 22:33:54,55.7228,93.7594,10.22,95,100,4.05,overcast clouds
336,Nur,PL,2022-12-27 22:33:55,52.6683,22.3221,35.29,83,78,14.34,broken clouds
337,Kysyl-Syr,RU,2022-12-27 22:33:55,63.8986,122.7617,-6.75,95,94,7.0,overcast clouds
338,Tessalit,ML,2022-12-27 22:33:56,20.1986,1.0114,67.53,25,100,10.49,overcast clouds
339,Kikwit,CD,2022-12-27 22:33:56,-5.041,18.8162,70.45,95,91,1.12,moderate rain
340,Clyde River,CA,2022-12-27 22:33:56,70.4692,-68.5914,-12.77,84,100,10.36,overcast clouds
341,Marsa Matruh,EG,2022-12-27 22:33:56,31.3525,27.2453,61.0,77,75,6.91,broken clouds
342,Tazovskiy,RU,2022-12-27 22:33:57,67.4667,78.7,-5.8,99,96,7.92,overcast clouds
343,Cockburn Town,TC,2022-12-27 22:33:57,21.4612,-71.1419,79.05,79,0,21.99,clear sky
344,Letlhakane,BW,2022-12-27 22:33:57,-21.4167,25.5833,78.3,45,4,16.96,clear sky
345,Buala,SB,2022-12-27 22:33:58,-8.145,159.5921,83.57,73,100,8.37,light rain
346,Luanda,AO,2022-12-27 22:31:56,-8.8368,13.2343,80.6,78,40,9.22,scattered clouds
347,Kashi,CN,2022-12-27 22:33:58,39.4547,75.9797,18.61,57,3,8.95,clear sky
348,Steamboat Springs,US,2022-12-27 22:30:38,40.485,-106.8317,36.99,94,100,4.61,snow
349,Kamiiso,JP,2022-12-27 22:33:58,41.8167,140.65,32.38,80,75,8.05,broken clouds
350,Cabedelo,BR,2022-12-27 22:33:59,-6.9811,-34.8339,81.27,79,30,12.86,scattered clouds
351,Lugovoy,KZ,2022-12-27 22:33:59,42.9472,72.7644,29.34,65,99,2.17,overcast clouds
352,Iqaluit,CA,2022-12-27 22:30:12,63.7506,-68.5145,10.13,67,40,4.61,scattered clouds
353,Leh,IN,2022-12-27 22:33:59,34.1667,77.5833,8.02,62,1,3.33,clear sky
354,Hovd,MN,2022-12-27 22:34:00,48.0056,91.6419,-5.03,81,5,2.86,clear sky
355,Sitka,US,2022-12-27 22:34:00,57.0531,-135.33,39.09,81,75,8.05,light rain
356,Dongsheng,CN,2022-12-27 22:34:00,39.8161,109.9776,6.67,38,9,7.16,clear sky
357,Araouane,ML,2022-12-27 22:34:01,18.9048,-3.5265,70.16,22,100,11.03,overcast clouds
358,Richards Bay,ZA,2022-12-27 22:34:01,-28.783,32.0377,69.82,95,10,7.2,clear sky
359,Mimongo,GA,2022-12-27 22:34:01,-1.6195,11.6068,69.39,94,54,1.39,broken clouds
360,Komsomolskiy,UZ,2022-12-27 22:34:02,40.4272,71.7189,25.52,93,100,2.3,fog
361,Acapulco,MX,2022-12-27 22:34:01,16.8634,-99.8901,84.02,61,20,5.75,few clouds
362,Nuuk,GL,2022-12-27 22:35:04,64.1835,-51.7216,30.81,69,75,2.3,broken clouds
363,Zhangjiakou,CN,2022-12-27 22:35:04,40.81,114.8794,9.84,51,0,4.38,clear sky
364,Belyy Yar,RU,2022-12-27 22:35:05,53.6039,91.3903,1.29,100,100,0.0,fog
365,San Quintin,MX,2022-12-27 22:35:05,30.4833,-115.95,66.04,57,59,4.97,broken clouds
366,Kalaleh,IR,2022-12-27 22:35:06,37.3807,55.4916,46.72,76,100,1.12,overcast clouds
367,Ponta Delgada,PT,2022-12-27 22:33:32,37.7333,-25.6667,61.52,77,75,16.11,broken clouds
368,Magway,MM,2022-12-27 22:35:06,20.15,94.9167,62.13,70,11,1.28,few clouds
369,Ishigaki,JP,2022-12-27 22:35:08,24.3448,124.1572,66.33,77,75,13.8,broken clouds
370,Gazojak,TM,2022-12-27 22:31:08,41.1875,61.4036,38.03,84,82,5.06,broken clouds
371,Caxito,AO,2022-12-27 22:35:08,-8.5785,13.6643,75.34,86,65,1.05,broken clouds
372,Turukhansk,RU,2022-12-27 22:35:09,65.8167,87.9833,4.33,96,100,7.74,overcast clouds
373,Dalby,AU,2022-12-27 22:35:09,-27.1833,151.2667,77.99,50,9,3.0,clear sky
374,Boshnyakovo,RU,2022-12-27 22:35:09,49.6333,142.1667,16.34,90,98,3.09,overcast clouds
375,Garowe,SO,2022-12-27 22:35:10,8.4054,48.4845,65.55,84,30,6.11,scattered clouds
376,Solnechnyy,RU,2022-12-27 22:35:10,50.7214,136.6319,3.7,98,99,2.06,overcast clouds
377,Presidencia Roque Saenz Pena,AR,2022-12-27 22:35:11,-26.7852,-60.4388,67.26,89,42,3.87,scattered clouds
378,Lewisporte,CA,2022-12-27 22:35:11,49.2499,-55.0482,29.91,72,100,8.84,overcast clouds
379,Baruun-Urt,MN,2022-12-27 22:35:11,46.6806,113.2792,0.01,94,97,5.82,overcast clouds
380,Bonthe,SL,2022-12-27 22:35:12,7.5264,-12.505,78.28,79,62,6.04,broken clouds
381,Berlevag,NO,2022-12-27 22:35:12,70.8578,29.0864,19.4,73,80,11.5,broken clouds
382,Borba,BR,2022-12-27 22:35:13,-4.3878,-59.5939,73.96,98,99,3.56,overcast clouds
383,Trofors,NO,2022-12-27 22:35:13,65.5333,13.4063,35.47,95,100,26.49,light snow
384,Kolaras,IN,2022-12-27 22:35:13,25.2333,77.6,52.02,41,0,5.28,clear sky
385,Chicama,PE,2022-12-27 22:35:14,-7.8447,-79.1469,72.14,70,100,7.87,overcast clouds
386,Niono,ML,2022-12-27 22:35:14,14.2526,-5.993,73.63,21,100,9.24,overcast clouds
387,Gamba,GA,2022-12-27 22:35:14,-2.65,10.0,77.61,89,93,4.59,overcast clouds
388,Alyangula,AU,2022-12-27 22:35:15,-13.8483,136.4192,83.3,77,100,11.77,overcast clouds
389,Belaya Gora,RU,2022-12-27 22:35:15,68.5333,146.4167,-30.46,99,91,3.67,overcast clouds
390,Ingham,US,2022-12-27 22:35:16,42.6,-84.3833,24.03,77,0,4.61,clear sky
391,Andrelandia,BR,2022-12-27 22:35:16,-21.7397,-44.3092,63.73,98,90,3.49,overcast clouds
392,Ahuimanu,US,2022-12-27 22:35:16,21.4447,-157.8378,82.11,64,40,12.66,scattered clouds
393,Kajaani,FI,2022-12-27 22:35:17,64.2273,27.7285,23.05,86,100,12.66,overcast clouds
394,Guerrero Negro,MX,2022-12-27 22:35:17,27.9769,-114.0611,74.62,31,4,9.91,clear sky
395,Lavrentiya,RU,2022-12-27 22:35:18,65.5833,-171.0,-4.94,92,6,11.18,clear sky
396,Xinmin,CN,2022-12-27 22:35:18,41.9908,122.8253,5.16,74,0,4.41,clear sky
397,Dingle,PH,2022-12-27 22:35:18,10.9995,122.6711,74.32,92,100,8.99,overcast clouds
398,Okhotsk,RU,2022-12-27 22:35:19,59.3833,143.3,-6.79,76,2,19.17,clear sky
399,Trairi,BR,2022-12-27 22:35:10,-3.2778,-39.2689,79.99,76,99,10.67,overcast clouds
400,Cairns,AU,2022-12-27 22:35:19,-16.9167,145.7667,80.06,94,75,9.22,broken clouds
401,Ternate,ID,2022-12-27 22:35:20,0.8,127.4,82.18,71,98,11.21,overcast clouds
402,Porgera,PG,2022-12-27 22:35:20,-5.4667,143.2,46.87,96,100,2.55,overcast clouds
403,Ankang,CN,2022-12-27 22:35:21,32.68,109.0172,34.9,75,91,1.54,overcast clouds
404,Gopalpur,IN,2022-12-27 22:35:21,19.2667,84.9167,71.64,87,98,5.32,overcast clouds
405,Batagay,RU,2022-12-27 22:35:22,67.6333,134.6333,-18.56,91,94,4.29,overcast clouds
406,Aljezur,PT,2022-12-27 22:35:23,37.3191,-8.8033,57.09,75,38,7.23,scattered clouds
407,Verkhovazhye,RU,2022-12-27 22:35:24,60.7472,42.0465,10.2,92,100,9.35,overcast clouds
408,Wanaka,NZ,2022-12-27 22:35:08,-44.7,169.15,68.11,68,0,4.0,clear sky
409,Porangatu,BR,2022-12-27 22:35:25,-13.4408,-49.1486,71.19,94,93,1.63,overcast clouds
410,Adrar,MR,2022-12-27 22:35:26,20.5022,-10.0711,70.14,22,82,11.1,broken clouds
411,Dalaba,GN,2022-12-27 22:36:27,10.7,-12.25,65.46,39,91,2.84,overcast clouds
412,Hofn,IS,2022-12-27 22:36:27,64.2539,-15.2082,22.96,69,94,9.93,overcast clouds
413,Atlantic City,US,2022-12-27 22:36:01,39.3643,-74.4229,36.01,61,0,3.44,clear sky
414,Rancho Palos Verdes,US,2022-12-27 22:33:00,33.7445,-118.387,63.0,86,100,1.99,overcast clouds
415,Ketou,BJ,2022-12-27 22:36:28,7.3633,2.5998,76.12,43,13,1.25,few clouds
416,Ornskoldsvik,SE,2022-12-27 22:36:28,63.2909,18.7153,23.95,100,100,0.0,overcast clouds
417,Aklavik,CA,2022-12-27 22:36:29,68.2191,-135.0107,-22.0,69,100,4.61,overcast clouds
418,Sao Joao De Pirabas,BR,2022-12-27 22:36:29,-0.7747,-47.1772,76.98,90,56,7.2,light rain
419,Adilabad,IN,2022-12-27 22:36:29,19.6667,78.5333,72.63,66,39,4.25,scattered clouds
420,Aldan,RU,2022-12-27 22:36:30,58.6031,125.3894,-27.31,94,24,3.83,few clouds
421,Terrace,CA,2022-12-27 22:36:30,54.5163,-128.6035,39.11,75,75,17.27,broken clouds
422,Ola,RU,2022-12-27 22:36:30,59.5833,151.2833,-2.45,82,1,11.86,clear sky
423,Plettenberg Bay,ZA,2022-12-27 22:36:31,-34.0527,23.3716,64.44,90,4,5.37,clear sky
424,San Cristobal,VE,2022-12-27 22:36:31,7.7669,-72.225,77.18,69,55,1.61,broken clouds
425,Newberg,US,2022-12-27 22:36:32,45.3001,-122.9732,47.64,84,100,28.77,heavy intensity rain
426,Mnogovershinnyy,RU,2022-12-27 22:36:32,53.9353,139.9242,-10.37,85,41,3.65,scattered clouds
427,Pangnirtung,CA,2022-12-27 22:36:32,66.1451,-65.7125,5.0,61,0,0.0,clear sky
428,Omboue,GA,2022-12-27 22:36:32,-1.5746,9.2618,78.55,86,72,5.53,broken clouds
429,Panaba,MX,2022-12-27 22:36:33,21.2833,-88.2667,72.48,67,64,9.89,broken clouds
430,Beloha,MG,2022-12-27 22:36:33,-25.1667,45.05,75.09,78,41,3.4,scattered clouds
431,Benguela,AO,2022-12-27 22:36:33,-12.5763,13.4055,77.23,77,75,8.23,broken clouds
432,Srednekolymsk,RU,2022-12-27 22:36:34,67.45,153.6833,-17.3,98,100,6.85,overcast clouds
433,Tikhvin,RU,2022-12-27 22:36:34,59.6451,33.5294,22.21,95,100,6.6,light snow
434,Palmer,US,2022-12-27 22:36:34,42.1584,-72.3287,29.75,60,40,5.75,scattered clouds
435,Xining,CN,2022-12-27 22:36:34,36.6167,101.7667,12.47,53,79,1.16,broken clouds
436,San Juan De Los Morros,VE,2022-12-27 22:36:35,9.9115,-67.3538,76.33,70,84,4.29,broken clouds
437,Abu Dhabi,AE,2022-12-27 22:36:35,24.4667,54.3667,69.82,82,0,2.3,clear sky
438,Zlobin,HR,2022-12-27 22:36:35,45.2924,14.6541,42.78,75,75,2.3,broken clouds
439,Santa Cruz,BO,2022-12-27 22:36:36,-17.8,-63.1667,89.06,58,20,10.36,few clouds
440,Lagoa,PT,2022-12-27 22:36:36,39.05,-27.9833,60.4,97,100,20.42,light rain
441,Yumen,CN,2022-12-27 22:36:36,40.2833,97.2,13.87,54,40,11.05,scattered clouds
442,Rawson,AR,2022-12-27 22:36:37,-43.3002,-65.1023,60.1,50,5,19.89,clear sky
443,Waitati,NZ,2022-12-27 22:36:37,-45.75,170.5667,70.03,62,16,9.48,few clouds
444,Charters Towers,AU,2022-12-27 22:36:37,-20.1,146.2667,78.57,59,6,12.06,clear sky
445,Svarstad,NO,2022-12-27 22:36:37,59.399,9.9698,30.56,77,72,3.51,broken clouds
446,Rio Grande,BR,2022-12-27 22:36:38,-32.035,-52.0986,73.51,63,100,13.51,overcast clouds
447,A Coruna,ES,2022-12-27 22:36:38,43.3713,-8.396,51.57,82,20,4.0,few clouds
448,Erenhot,CN,2022-12-27 22:36:38,43.6475,111.9767,5.72,58,1,7.49,clear sky
449,Ciudad Bolivar,VE,2022-12-27 22:36:39,8.1222,-63.5497,82.06,61,90,14.63,overcast clouds
450,Berdigestyakh,RU,2022-12-27 22:36:39,62.0989,126.6992,-27.35,100,38,4.14,scattered clouds
451,Ostersund,SE,2022-12-27 22:36:39,63.1792,14.6357,28.85,86,20,21.85,few clouds
452,Saint-Francois,FR,2022-12-27 22:35:17,46.4154,3.9054,40.44,87,0,6.91,clear sky
453,Nachingwea,TZ,2022-12-27 22:36:40,-10.3833,38.7667,69.58,91,94,1.05,overcast clouds
454,Marawi,PH,2022-12-27 22:37:40,7.9986,124.2928,68.7,97,100,0.47,overcast clouds
455,Kamaishi,JP,2022-12-27 22:37:40,39.2667,141.8833,40.15,82,93,5.79,overcast clouds
456,Jaque,PA,2022-12-27 22:37:40,7.5175,-78.1703,77.67,87,43,3.56,light rain
457,Naze,JP,2022-12-27 22:37:41,28.3667,129.4833,56.32,78,99,8.52,overcast clouds
458,Ayr,GB,2022-12-27 22:37:41,55.4627,-4.6339,46.51,87,75,18.41,broken clouds
459,Vallenar,CL,2022-12-27 22:37:41,-28.5708,-70.7581,77.65,30,0,5.41,clear sky
460,Chapais,CA,2022-12-27 22:37:42,49.7834,-74.8492,-4.22,99,99,4.29,overcast clouds
461,Wanxian,CN,2022-12-27 22:37:42,30.8039,108.3897,41.61,92,100,2.82,overcast clouds
462,Lasa,IT,2022-12-27 22:37:42,46.6166,10.7002,40.08,72,66,1.72,broken clouds
463,Zonguldak,TR,2022-12-27 22:37:42,41.25,31.8333,44.65,72,100,5.5,overcast clouds
464,Humaita,BR,2022-12-27 22:37:43,-7.5061,-63.0208,75.61,95,100,3.13,overcast clouds
465,Prado,BR,2022-12-27 22:37:43,-17.3411,-39.2208,74.17,88,11,6.02,few clouds
466,Ahipara,NZ,2022-12-27 22:37:43,-35.1667,173.1667,73.94,59,0,2.42,clear sky
467,Martapura,ID,2022-12-27 22:37:44,-3.4167,114.85,75.29,94,20,2.3,few clouds
468,Collie,AU,2022-12-27 22:37:44,-33.3667,116.15,56.05,58,0,8.57,clear sky
469,New Albany,US,2022-12-27 22:35:12,38.2856,-85.8241,34.27,84,100,8.05,overcast clouds
470,Amuntai,ID,2022-12-27 22:37:44,-2.4177,115.2494,72.93,95,94,1.07,moderate rain
471,Salinopolis,BR,2022-12-27 22:37:44,-0.6136,-47.3561,78.91,85,49,10.76,moderate rain
472,Ukiah,US,2022-12-27 22:37:45,39.1502,-123.2078,56.37,76,20,6.91,few clouds
473,Venice,US,2022-12-27 22:32:53,27.0998,-82.4543,67.98,41,0,8.05,clear sky
474,Klaksvik,FO,2022-12-27 22:37:45,62.2266,-6.589,40.12,75,100,26.96,light rain
475,Kyren,RU,2022-12-27 22:37:46,51.6828,102.1408,2.57,86,43,1.52,scattered clouds
476,Chipinge,ZW,2022-12-27 22:37:46,-20.1883,32.6236,61.0,92,6,4.94,clear sky
477,Somanda,TZ,2022-12-27 22:37:46,-3.3667,33.95,64.63,95,100,5.66,light rain
478,Ampanihy,MG,2022-12-27 22:37:47,-24.7,44.75,74.93,86,64,1.88,broken clouds
479,Jumla,NP,2022-12-27 22:37:47,29.2747,82.1838,33.22,26,0,4.21,clear sky
480,Maceio,BR,2022-12-27 22:36:05,-9.6658,-35.7353,76.44,88,75,6.91,broken clouds
481,Koroni,GR,2022-12-27 22:37:47,36.8,21.95,55.08,78,21,5.93,few clouds
482,Antofagasta,CL,2022-12-27 22:37:48,-23.65,-70.4,69.08,78,14,9.1,few clouds
483,Dong Hoi,VN,2022-12-27 22:37:48,17.4833,106.6,67.06,87,85,1.41,overcast clouds
484,Mataundh,IN,2022-12-27 22:37:48,25.45,80.15,49.87,55,0,7.05,clear sky
485,Wanning,CN,2022-12-27 22:37:49,18.8003,110.3967,67.14,86,96,8.32,overcast clouds
486,Margate,GB,2022-12-27 22:36:37,51.3813,1.3862,49.89,85,100,11.99,light rain
487,Prainha,BR,2022-12-27 22:37:49,-1.8,-53.48,77.59,79,94,0.92,light rain
488,Kununurra,AU,2022-12-27 22:37:49,-15.7667,128.7333,75.18,94,90,4.61,overcast clouds
489,Laguna,US,2022-12-27 22:37:50,38.421,-121.4238,57.29,94,100,16.11,overcast clouds
490,Kholmskaya,RU,2022-12-27 22:37:50,44.846,38.389,47.61,79,100,19.66,overcast clouds
491,Sisimiut,GL,2022-12-27 22:37:50,66.9395,-53.6735,10.13,59,23,13.69,few clouds
492,Byron Bay,AU,2022-12-27 22:36:25,-28.65,153.6167,70.95,78,61,8.23,broken clouds
493,Matai,TZ,2022-12-27 22:37:51,-8.3,31.5167,56.53,95,85,0.96,overcast clouds
494,Carahue,CL,2022-12-27 22:37:00,-38.7,-73.1667,57.36,63,97,8.88,overcast clouds
495,Norman Wells,CA,2022-12-27 22:37:51,65.282,-126.8329,-14.76,70,100,4.61,light snow
496,La Rioja,ES,2022-12-27 22:37:51,42.25,-2.5,38.98,81,2,7.45,clear sky
497,Komyshnya,UA,2022-12-27 22:37:52,50.1859,33.684,34.81,85,100,19.71,overcast clouds
498,Sulina,RO,2022-12-27 22:37:52,45.1559,29.6536,43.36,62,33,18.07,scattered clouds
499,La Palma,US,2022-12-27 22:37:52,33.8464,-118.0467,66.87,84,100,3.44,overcast clouds
500,Lukulu,ZM,2022-12-27 22:37:53,-14.3707,23.242,65.98,86,97,5.01,overcast clouds
501,Paka,MY,2022-12-27 22:37:53,4.6374,103.4368,73.33,94,99,2.3,overcast clouds
502,Redmond,US,2022-12-27 22:38:53,47.674,-122.1215,51.53,83,100,15.01,overcast clouds
503,Aswan,EG,2022-12-27 22:34:50,24.0934,32.907,56.5,47,0,4.61,clear sky
504,Ribeira Brava,PT,2022-12-27 22:38:54,32.65,-17.0667,70.43,21,3,7.47,clear sky
505,Emba,KZ,2022-12-27 22:38:55,48.8264,58.1442,19.96,91,100,1.79,overcast clouds
506,Ust-Tsilma,RU,2022-12-27 22:38:55,65.441,52.1498,-0.17,98,100,3.87,overcast clouds
507,Teguldet,RU,2022-12-27 22:38:55,57.3064,88.1667,10.94,92,100,4.25,overcast clouds
508,Krasnokamensk,RU,2022-12-27 22:38:56,50.0979,118.0369,-18.83,99,95,3.0,overcast clouds
509,Bulgan,MN,2022-12-27 22:38:56,48.8125,103.5347,-8.79,89,3,4.41,clear sky
510,Sinnamary,GF,2022-12-27 22:38:56,5.3833,-52.95,76.64,88,92,11.56,overcast clouds
511,Kinel-Cherkassy,RU,2022-12-27 22:38:57,53.4706,51.4743,12.52,92,100,5.66,overcast clouds
512,Cap Malheureux,MU,2022-12-27 22:38:57,-19.9842,57.6142,77.47,66,1,5.99,clear sky
513,Midyat,TR,2022-12-27 22:38:57,37.4247,41.3393,38.68,57,10,7.09,clear sky
514,San Andres,CO,2022-12-27 22:36:46,12.5847,-81.7006,82.42,69,40,11.5,scattered clouds
515,Xingyi,CN,2022-12-27 22:38:58,24.1877,102.817,43.79,94,89,3.65,overcast clouds
516,Chiny,BE,2022-12-27 22:38:58,49.7333,5.3333,39.88,93,97,11.99,overcast clouds
517,Vao,NC,2022-12-27 22:38:58,-22.6667,167.4833,78.28,85,100,15.1,light rain
518,Fortuna,US,2022-12-27 22:38:58,40.5982,-124.1573,52.14,86,91,1.01,overcast clouds
519,Birjand,IR,2022-12-27 22:38:59,32.8663,59.2211,36.07,87,0,6.91,clear sky
520,Tabuk,PH,2022-12-27 22:38:59,17.4189,121.4443,67.03,93,100,2.95,overcast clouds
521,Mabaruma,GY,2022-12-27 22:38:59,8.2,-59.7833,71.44,98,41,3.27,scattered clouds
522,Bandipur,NP,2022-12-27 22:39:00,27.9333,84.4167,40.21,63,0,2.8,clear sky
523,Escuinapa,MX,2022-12-27 22:39:00,22.85,-105.8,79.39,39,0,7.2,clear sky
524,Dekar,BW,2022-12-27 22:39:00,-21.5333,21.9333,78.73,45,54,1.86,light rain
525,Urusha,RU,2022-12-27 22:39:00,54.05,122.9,-5.85,94,100,2.84,overcast clouds
526,Camana,PE,2022-12-27 22:39:01,-16.6228,-72.7111,72.32,83,82,10.54,broken clouds
527,Saint Austell,GB,2022-12-27 22:39:01,50.3383,-4.7658,53.44,100,75,13.8,broken clouds
528,Suicheng,CN,2022-12-27 22:39:01,33.8963,117.9331,26.8,53,37,5.97,scattered clouds
529,Tumkur,IN,2022-12-27 22:39:02,13.3422,77.1017,67.48,88,95,5.86,overcast clouds
530,Udgir,IN,2022-12-27 22:39:02,18.3833,77.1167,73.4,57,98,3.76,overcast clouds
531,Camopi,GF,2022-12-27 22:39:02,3.1655,-52.3158,72.88,99,99,2.48,overcast clouds
532,Manta,EC,2022-12-27 22:38:01,-0.95,-80.7333,82.18,74,75,8.05,broken clouds
533,Chaman,PK,2022-12-27 22:39:03,30.9236,66.4512,48.07,77,100,4.09,overcast clouds
534,Aripuana,BR,2022-12-27 22:39:03,-9.1667,-60.6333,76.5,88,98,2.75,overcast clouds
535,Seryshevo,RU,2022-12-27 22:39:03,51.0933,128.3786,-7.42,100,99,2.89,overcast clouds
536,Valdivia,CL,2022-12-27 22:39:03,-39.8142,-73.2459,69.89,38,60,4.47,broken clouds
537,Brighton,GB,2022-12-27 22:39:04,50.8284,-0.1395,50.81,93,100,24.0,overcast clouds
538,Zelenokumsk,RU,2022-12-27 22:39:04,44.4069,43.8806,34.86,81,87,5.5,overcast clouds
539,Pitimbu,BR,2022-12-27 22:39:04,-7.4706,-34.8086,81.19,78,48,12.1,scattered clouds
540,Madang,PG,2022-12-27 22:39:05,-5.2246,145.7966,80.4,79,94,6.55,overcast clouds
541,Abu Samrah,SY,2022-12-27 22:39:05,35.3029,37.1841,44.64,87,0,6.22,clear sky
542,Kholtoson,RU,2022-12-27 22:39:05,50.2981,103.3097,-11.94,96,24,4.36,few clouds
543,Monterey,US,2022-12-27 22:37:32,36.2505,-121.2516,55.17,1,100,2.55,overcast clouds
544,Ouesso,CG,2022-12-27 22:39:06,1.6136,16.0517,71.33,52,60,1.32,broken clouds
545,Baturinskaya,RU,2022-12-27 22:39:06,45.7927,39.3707,46.13,81,100,15.32,moderate rain
546,Nabire,ID,2022-12-27 22:39:06,-3.3667,135.4833,76.62,86,100,2.73,overcast clouds
547,Itaituba,BR,2022-12-27 22:39:07,-4.2761,-55.9836,77.16,94,75,0.0,broken clouds
548,Akdepe,TM,2022-12-27 22:39:07,42.0551,59.3788,28.49,52,8,6.35,clear sky
549,Gokak,IN,2022-12-27 22:39:07,16.1667,74.8333,71.11,71,78,5.06,broken clouds
550,Montevideo,UY,2022-12-27 22:35:54,-34.8335,-56.1674,79.83,52,75,9.22,broken clouds
551,Sept-Iles,CA,2022-12-27 22:35:20,50.2001,-66.3821,8.6,63,20,9.22,few clouds
552,Constitucion,CL,2022-12-27 22:40:08,-35.3333,-72.4167,62.89,72,17,11.83,few clouds
553,Fredericksburg,US,2022-12-27 22:36:31,38.3032,-77.4605,39.42,50,0,0.0,clear sky
554,Bathsheba,BB,2022-12-27 22:40:09,13.2167,-59.5167,79.41,73,20,19.57,few clouds
555,Valle Hermoso,MX,2022-12-27 22:40:09,25.6667,-97.8333,67.89,43,0,9.55,clear sky
556,Gravdal,NO,2022-12-27 22:40:09,68.1214,13.5031,37.29,56,75,11.5,light rain
557,Save,BJ,2022-12-27 22:40:10,8.0425,2.486,81.79,25,3,6.73,clear sky
558,Kemin,KG,2022-12-27 22:40:10,42.7846,75.6892,28.27,47,4,9.48,clear sky
559,Kampot,KH,2022-12-27 22:40:11,10.6167,104.1833,62.65,71,100,3.69,overcast clouds
560,Itaqui,BR,2022-12-27 22:40:11,-29.1253,-56.5531,68.27,84,97,2.68,overcast clouds
561,Lashio,MM,2022-12-27 22:40:11,22.9333,97.75,48.22,97,7,1.86,clear sky
562,Tromso,NO,2022-12-27 22:40:12,69.6496,18.957,30.22,59,0,21.85,clear sky
563,Solwezi,ZM,2022-12-27 22:40:12,-12.1688,26.3894,62.31,96,100,3.56,overcast clouds
564,Yingcheng,CN,2022-12-27 22:40:13,30.95,113.55,37.02,56,99,5.93,overcast clouds
565,Boone,US,2022-12-27 22:40:13,39.0334,-92.3335,37.65,59,45,1.99,scattered clouds
566,Diego De Almagro,CL,2022-12-27 22:40:13,-26.3667,-70.05,73.2,29,0,9.06,clear sky
567,Oranjemund,NA,2022-12-27 22:40:14,-28.55,16.4333,61.84,91,0,7.02,clear sky
568,Camocim,BR,2022-12-27 22:40:14,-2.9022,-40.8411,80.26,77,95,15.61,overcast clouds
569,Nago,JP,2022-12-27 22:40:15,26.5881,127.9761,59.85,79,45,7.85,scattered clouds
570,Beyneu,KZ,2022-12-27 22:40:15,45.3167,55.2,24.44,88,73,7.18,broken clouds
571,Savelugu,GH,2022-12-27 22:40:16,9.6244,-0.8253,77.79,22,13,6.73,few clouds
572,Talas,TR,2022-12-27 22:40:16,38.6908,35.5538,25.47,93,63,2.3,broken clouds
573,Riviere-Au-Renard,CA,2022-12-27 22:40:16,48.9957,-64.3971,16.09,76,100,15.35,overcast clouds
574,Namibe,AO,2022-12-27 22:40:17,-15.1961,12.1522,71.04,74,13,4.65,few clouds
575,Ilinskiy,RU,2022-12-27 22:40:17,55.619,38.1182,30.58,93,100,11.18,light snow
576,Kalmunai,LK,2022-12-27 22:40:17,7.4167,81.8167,75.09,90,23,2.35,few clouds
577,Clarence Town,AU,2022-12-27 22:40:18,-32.5833,151.7833,79.14,38,1,4.03,clear sky
578,Klaeng,TH,2022-12-27 22:40:19,12.7797,101.6483,70.02,100,89,3.09,overcast clouds
579,Niesky,DE,2022-12-27 22:40:20,51.2924,14.8211,39.22,87,56,9.08,broken clouds
580,Stromness,GB,2022-12-27 22:40:21,58.965,-3.296,42.87,91,100,21.0,overcast clouds
581,Leshukonskoye,RU,2022-12-27 22:40:22,64.8989,45.7622,3.33,93,71,7.23,broken clouds
582,Pizarro,CO,2022-12-27 22:40:22,4.9533,-77.366,76.35,87,47,5.95,scattered clouds
583,Mishelevka,RU,2022-12-27 22:40:23,52.8575,103.1719,-7.83,99,91,3.06,overcast clouds
584,Ratnagiri,IN,2022-12-27 22:40:24,16.9833,73.3,74.44,68,16,4.07,few clouds
585,Bekhteyevka,RU,2022-12-27 22:35:26,50.8072,37.2085,34.7,99,100,8.25,overcast clouds
586,Bijapur,IN,2022-12-27 22:40:25,16.8333,75.7,72.93,67,60,8.23,broken clouds
587,Campos Belos,BR,2022-12-27 22:40:25,-13.0367,-46.7717,69.17,92,97,1.92,overcast clouds
588,Bozhou,CN,2022-12-27 22:40:26,33.8772,115.7703,28.33,38,49,4.38,scattered clouds
589,Chinsali,ZM,2022-12-27 22:40:26,-10.5414,32.0816,63.07,98,100,1.19,light rain
590,Ucluelet,CA,2022-12-27 22:40:27,48.9329,-125.5528,46.09,94,100,7.0,overcast clouds
591,Adre,TD,2022-12-27 22:40:27,13.4667,22.2,60.55,32,0,17.16,clear sky
592,San Clemente,US,2022-12-27 22:40:29,33.427,-117.612,70.27,83,100,4.99,overcast clouds
593,Andros Town,BS,2022-12-27 22:40:30,24.7,-77.7667,73.36,74,100,14.38,overcast clouds
594,Shimoda,JP,2022-12-27 22:40:30,34.6667,138.95,42.1,73,9,8.3,clear sky
595,Nyurba,RU,2022-12-27 22:40:31,63.2842,118.3319,1.15,95,100,10.47,overcast clouds
596,Lorca,ES,2022-12-27 22:41:31,37.6712,-1.7017,52.11,62,33,1.21,scattered clouds
597,Barahona,DO,2022-12-27 22:41:31,18.2085,-71.1008,80.42,83,40,0.0,scattered clouds
598,Artyom,AZ,2022-12-27 22:41:31,40.4723,50.333,41.14,75,100,11.03,overcast clouds
599,Balassagyarmat,HU,2022-12-27 22:41:32,48.073,19.2961,40.28,80,86,4.14,overcast clouds
600,Grand Island,US,2022-12-27 22:38:13,40.925,-98.342,43.09,64,0,13.8,clear sky
601,Prince Rupert,CA,2022-12-27 22:40:47,54.3161,-130.3201,40.69,91,75,6.91,broken clouds
602,Sulangan,PH,2022-12-27 22:41:32,11.1373,123.7228,79.14,83,100,21.68,moderate rain
603,Luhyny,UA,2022-12-27 22:41:32,51.082,28.4006,33.57,92,100,12.97,overcast clouds
604,Mokhsogollokh,RU,2022-12-27 22:41:33,61.4681,128.9203,-34.42,100,33,2.17,scattered clouds
605,Ormara,PK,2022-12-27 22:41:33,25.2088,64.6357,71.67,77,25,4.76,scattered clouds
606,Khasan,RU,2022-12-27 22:41:33,42.4308,130.6434,15.93,65,88,16.91,overcast clouds
607,Champerico,GT,2022-12-27 22:41:34,14.3,-91.9167,90.14,67,0,7.74,clear sky
608,Valentin Gomez Farias,MX,2022-12-27 22:41:34,28.2167,-106.5833,70.07,14,50,6.96,scattered clouds
609,Port-Gentil,GA,2022-12-27 22:41:34,-0.7193,8.7815,81.32,78,64,7.72,broken clouds
610,Soe,ID,2022-12-27 22:41:34,-9.8607,124.284,69.75,84,100,3.04,overcast clouds
611,Sur,OM,2022-12-27 22:41:35,22.5667,59.5289,71.98,77,3,9.46,clear sky
612,Mount Isa,AU,2022-12-27 22:41:35,-20.7333,139.5,80.37,74,100,12.66,overcast clouds
613,Rabaul,PG,2022-12-27 22:41:35,-4.1967,152.1721,82.69,71,77,8.66,broken clouds
614,Mitu,CO,2022-12-27 22:41:36,1.1983,-70.1733,79.3,68,100,1.99,overcast clouds
615,Mayo,US,2022-12-27 22:41:36,38.8876,-76.5119,39.31,62,0,6.91,clear sky
616,Kyra,RU,2022-12-27 22:41:36,49.5776,111.9753,-6.16,93,99,5.57,overcast clouds
617,Anloga,GH,2022-12-27 22:41:36,5.7947,0.8973,79.54,73,37,6.49,scattered clouds
618,Santa Fe,AR,2022-12-27 22:40:46,-31.6333,-60.7,86.02,27,19,4.0,light rain
619,Ossora,RU,2022-12-27 22:41:37,59.2353,163.0719,11.79,66,10,8.32,clear sky
620,Betioky,MG,2022-12-27 22:41:37,-23.7167,44.3833,73.22,90,69,1.3,broken clouds
621,Luang Prabang,LA,2022-12-27 22:41:37,19.8856,102.1347,61.74,91,78,1.28,broken clouds
622,Caninde,BR,2022-12-27 22:41:38,-4.3589,-39.3117,80.94,56,91,3.87,overcast clouds
623,Portland,US,2022-12-27 22:37:39,45.5234,-122.6762,47.57,92,100,11.99,moderate rain
624,Rameswaram,IN,2022-12-27 22:41:38,9.2833,79.3,79.43,79,7,10.27,clear sky
625,Liverpool,GB,2022-12-27 22:41:04,53.4106,-2.9779,47.52,89,75,9.22,broken clouds
626,Moussoro,TD,2022-12-27 22:41:38,13.6408,16.4901,64.8,25,0,13.49,clear sky
627,Hurghada,EG,2022-12-27 22:37:28,27.2574,33.8129,60.84,51,0,10.36,clear sky
628,Bardiyah,LY,2022-12-27 22:41:39,31.7561,25.0865,60.33,80,7,8.5,clear sky
629,Uralets,RU,2022-12-27 22:41:39,57.6614,59.6497,-2.2,97,29,3.89,scattered clouds
630,Stykkisholmur,IS,2022-12-27 22:41:39,65.0757,-22.7297,23.95,71,96,23.31,overcast clouds
631,Quatre Cocos,MU,2022-12-27 22:41:40,-20.2078,57.7625,78.91,74,20,12.66,few clouds
632,Sernur,RU,2022-12-27 22:41:40,56.9333,49.1536,-3.19,100,100,6.44,overcast clouds
633,Talaya,RU,2022-12-27 22:41:40,61.3833,152.75,-19.77,100,100,2.59,overcast clouds
634,Spanaway,US,2022-12-27 22:41:40,47.104,-122.4346,48.78,91,100,11.5,light rain
635,Madimba,TZ,2022-12-27 22:41:41,-10.4,40.3333,74.34,90,37,3.94,scattered clouds
636,Bisho,ZA,2022-12-27 22:41:41,-32.8472,27.4422,63.97,80,5,3.02,clear sky
637,Port Blair,IN,2022-12-27 22:41:41,11.6667,92.75,78.84,73,20,2.3,haze
638,Sevsk,RU,2022-12-27 22:41:42,52.1491,34.4926,32.25,99,100,7.96,light snow
639,Vangaindrano,MG,2022-12-27 22:41:42,-23.35,47.6,73.13,91,10,4.63,light rain
640,Pandan,PH,2022-12-27 22:41:42,14.0453,124.1694,78.08,76,100,18.16,overcast clouds
641,Meridian,US,2022-12-27 22:41:38,43.6121,-116.3915,56.25,54,0,8.05,clear sky
642,Blytheville,US,2022-12-27 22:38:55,35.9273,-89.919,39.42,70,0,8.05,clear sky
643,Warrnambool,AU,2022-12-27 22:38:42,-38.3833,142.4833,60.69,84,100,17.36,overcast clouds
644,San Jose,US,2022-12-27 22:41:26,37.3394,-121.895,58.05,93,100,7.0,mist
645,Babayurt,RU,2022-12-27 22:42:43,43.6002,46.7789,34.0,89,27,7.23,scattered clouds
646,San Vicente,AR,2022-12-27 22:42:43,-26.6167,-54.1333,62.78,99,99,5.59,light rain
647,Nikolayevsk-Na-Amure,RU,2022-12-27 22:42:43,53.1406,140.73,-9.2,98,48,3.76,scattered clouds
648,Lincoln,US,2022-12-27 22:38:51,40.8,-96.667,37.31,68,0,16.11,clear sky
649,Newport,GB,2022-12-27 22:39:53,51.5877,-2.9984,52.45,92,100,19.26,overcast clouds
650,Zhanaozen,KZ,2022-12-27 22:42:44,43.3,52.8,29.5,84,39,2.93,scattered clouds
651,Cortez,US,2022-12-27 22:42:44,37.3489,-108.5859,50.76,40,100,9.22,overcast clouds
652,Biak,ID,2022-12-27 22:42:44,-0.9131,122.8766,77.4,82,100,3.11,overcast clouds
653,Impfondo,CG,2022-12-27 22:42:45,1.6381,18.0667,72.01,51,92,1.77,overcast clouds
654,Nyrob,RU,2022-12-27 22:42:45,60.733,56.7202,-1.44,99,100,2.39,overcast clouds
655,Embonas,GR,2022-12-27 22:42:45,36.2269,27.8564,53.73,79,8,3.24,clear sky
656,Iskateley,RU,2022-12-27 22:42:46,67.6803,53.1512,11.95,91,100,10.07,overcast clouds
657,Trzcianka,PL,2022-12-27 22:42:46,53.0406,16.4563,33.1,96,35,9.15,scattered clouds
658,Bara,NG,2022-12-27 22:42:46,10.3744,10.7288,66.67,34,2,11.1,clear sky
659,Carutapera,BR,2022-12-27 22:42:46,-1.195,-46.02,78.1,82,67,7.0,broken clouds
660,Makakilo City,US,2022-12-27 22:42:47,21.3469,-158.0858,81.45,58,0,13.8,clear sky
661,Povenets,RU,2022-12-27 22:42:47,62.8487,34.8262,18.45,94,100,12.75,light snow
662,Lata,PT,2022-12-27 22:42:47,40.1629,-8.3327,50.83,96,3,3.09,clear sky
663,Cazanesti,RO,2022-12-27 22:42:48,44.6167,27.0167,41.59,76,86,7.31,overcast clouds
664,Grandview,US,2022-12-27 22:42:48,38.8858,-94.533,37.08,63,0,17.27,clear sky
665,San Carlos De Bariloche,AR,2022-12-27 22:41:16,-41.1456,-71.3082,67.75,14,0,21.85,clear sky
666,Ugoofaaru,MV,2022-12-27 22:42:48,5.6667,73.0,81.14,72,58,2.82,broken clouds
667,Vresina,CZ,2022-12-27 22:42:49,49.8242,18.1257,36.73,86,0,10.36,clear sky
668,Dunedin,NZ,2022-12-27 22:42:49,-45.8742,170.5036,67.1,68,13,11.97,few clouds
669,Eslov,SE,2022-12-27 22:42:44,55.8393,13.3039,38.43,94,43,10.42,scattered clouds
670,Ust-Kuyga,RU,2022-12-27 22:42:49,70.0167,135.6,-26.14,99,99,7.47,overcast clouds
671,Najran,SA,2022-12-27 22:42:13,17.4924,44.1277,61.45,63,41,4.5,scattered clouds
672,Visnes,NO,2022-12-27 22:42:49,59.3556,5.2242,37.22,86,75,12.66,broken clouds
673,Qeshm,IR,2022-12-27 22:42:50,26.9581,56.2719,62.49,74,53,3.83,light rain
674,Dargaville,NZ,2022-12-27 22:42:50,-35.9333,173.8833,76.05,56,6,5.17,clear sky
675,Huaicheng,CN,2022-12-27 22:42:50,23.9051,112.1931,44.98,67,59,2.98,broken clouds
676,Sagua De Tanamo,CU,2022-12-27 22:42:51,20.5819,-75.2414,74.89,81,1,3.51,clear sky
677,Grimshaw,CA,2022-12-27 22:42:51,56.1834,-117.6027,-0.78,85,100,13.8,light snow
678,Muli,MV,2022-12-27 22:42:51,2.9167,73.5667,81.63,70,86,8.12,overcast clouds
679,Launceston,AU,2022-12-27 22:42:51,-41.45,147.1667,74.84,68,40,21.85,heavy intensity rain
680,Sinegorye,RU,2022-12-27 22:42:52,62.0788,150.477,-19.7,100,96,1.86,overcast clouds
681,Gryfice,PL,2022-12-27 22:42:52,53.9165,15.2003,34.05,95,23,11.45,few clouds
682,Cravo Norte,CO,2022-12-27 22:42:52,6.3017,-70.2041,81.66,60,98,5.3,overcast clouds
683,Bondo,CD,2022-12-27 22:42:53,3.8146,23.6866,68.43,45,100,3.2,overcast clouds
684,Sola,VU,2022-12-27 22:42:53,-13.8833,167.55,80.69,71,100,4.59,overcast clouds
685,Am Timan,TD,2022-12-27 22:42:53,11.0297,20.2827,68.07,27,0,5.86,clear sky
686,Banikoara,BJ,2022-12-27 22:42:54,11.2985,2.4386,71.2,28,4,5.61,clear sky
687,Manali,IN,2022-12-27 22:42:54,13.1667,80.2667,78.89,85,10,3.04,clear sky
688,Thunder Bay,CA,2022-12-27 22:42:04,48.4001,-89.3168,22.98,86,100,9.22,snow
689,Navahrudak,BY,2022-12-27 22:42:54,53.6,25.8333,31.6,96,100,12.82,light snow
690,Estelle,US,2022-12-27 22:42:54,29.8458,-90.1067,57.2,51,40,6.91,scattered clouds
691,Lubango,AO,2022-12-27 22:42:55,-14.9172,13.4925,61.83,70,36,3.44,scattered clouds
692,Petropavlovsk-Kamchatskiy,RU,2022-12-27 22:43:55,53.0452,158.6483,9.19,56,0,11.18,clear sky
693,Egvekinot,RU,2022-12-27 22:43:55,66.3167,-179.1667,-8.41,71,0,21.23,clear sky
694,Zacualpan,MX,2022-12-27 22:43:56,21.25,-105.1667,94.62,49,0,2.82,clear sky
695,Karratha,AU,2022-12-27 22:43:56,-20.7377,116.8463,81.97,70,44,9.35,scattered clouds
696,Griffith,US,2022-12-27 22:43:56,41.5284,-87.4237,24.06,76,0,11.5,clear sky
697,Troina,IT,2022-12-27 22:43:57,37.7854,14.5985,46.85,44,46,5.57,scattered clouds
698,Meadow Lake,US,2022-12-27 22:43:57,34.8014,-106.5436,55.96,32,92,9.01,overcast clouds
699,Muros,ES,2022-12-27 22:43:57,42.7762,-9.0603,48.09,94,55,12.71,broken clouds
700,Nelson Bay,AU,2022-12-27 22:43:57,-32.7167,152.15,79.09,66,3,8.99,clear sky
701,Narathiwat,TH,2022-12-27 22:43:58,6.3333,101.75,73.26,88,99,3.49,overcast clouds
702,Hamilton,US,2022-12-27 22:40:30,39.1834,-84.5333,33.24,84,100,6.91,haze
703,Amalapuram,IN,2022-12-27 22:43:58,16.5833,82.0167,71.51,97,61,2.44,broken clouds
